[
  {
    "name": "Abia",
    "capital": "Umuahia",
    "slug": "abia",
    "code": "AB",
    "iso_code": "NG-AB",
    "geo_zone": "South East",
    "latitude": 5.532003,
    "longitude": 7.486002,
    "area_sq_km": 6320
  },
  {
    "name": "Adamawa",
    "capital": "Yola",
    "slug": "adamawa",
    "code": "AD",
    "iso_code": "NG-AD",
    "geo_zone": "North East",
    "latitude": 9.326667,
    "longitude": 12.398333,
    "area_sq_km": 36917
  },
  {
    "name": "Akwa Ibom",
    "capital": "Uyo",
    "slug": "akwa-ibom",
    "code": "AK",
    "iso_code": "NG-AK",
    "geo_zone": "South South",
    "latitude": 5.007996,
    "longitude": 7.849998,
    "area_sq_km": 7081
  },
  {
    "name": "Anambra",
    "capital": "Awka",
    "slug": "anambra",
    "code": "AN",
    "iso_code": "NG-AN",
    "geo_zone": "South East",
    "latitude": 6.210684,
    "longitude": 7.067986,
    "area_sq_km": 4844
  },
  {
    "name": "Bauchi",
    "capital": "Bauchi",
    "slug": "bauchi",
    "code": "BA",
    "iso_code": "NG-BA",
    "geo_zone": "North East",
    "latitude": 10.773330,
    "longitude": 9.999426,
    "area_sq_km": 45837
  },
  {
    "name": "Bayelsa",
    "capital": "Yenagoa",
    "slug": "bayelsa",
    "code": "BY",
    "iso_code": "NG-BY",
    "geo_zone": "South South",
    "latitude": 4.771389,
    "longitude": 6.069444,
    "area_sq_km": 10773
  },
  {
    "name": "Benue",
    "capital": "Makurdi",
    "slug": "benue",
    "code": "BE",
    "iso_code": "NG-BE",
    "geo_zone": "North Central",
    "latitude": 7.190399,
    "longitude": 8.129985,
    "area_sq_km": 34059
  },
  {
    "name": "Borno",
    "capital": "Maiduguri",
    "slug": "borno",
    "code": "BO",
    "iso_code": "NG-BO",
    "geo_zone": "North East",
    "latitude": 11.846834,
    "longitude": 13.160156,
    "area_sq_km": 70898
  },
  {
    "name": "Cross River",
    "capital": "Calabar",
    "slug": "cross-river",
    "code": "CR",
    "iso_code": "NG-CR",
    "geo_zone": "South South",
    "latitude": 5.870018,
    "longitude": 8.599997,
    "area_sq_km": 20156
  },
  {
    "name": "Delta",
    "capital": "Asaba",
    "slug": "delta",
    "code": "DE",
    "iso_code": "NG-DE",
    "geo_zone": "South South",
    "latitude": 5.532003,
    "longitude": 5.898002,
    "area_sq_km": 17698
  },
  {
    "name": "Ebonyi",
    "capital": "Abakaliki",
    "slug": "ebonyi",
    "code": "EB",
    "iso_code": "NG-EB",
    "geo_zone": "South East",
    "latitude": 6.264871,
    "longitude": 8.013600,
    "area_sq_km": 5670
  },
  {
    "name": "Edo",
    "capital": "Benin City",
    "slug": "edo",
    "code": "ED",
    "iso_code": "NG-ED",
    "geo_zone": "South South",
    "latitude": 6.634032,
    "longitude": 5.930087,
    "area_sq_km": 17802
  },
  {
    "name": "Ekiti",
    "capital": "Ado-Ekiti",
    "slug": "ekiti",
    "code": "EK",
    "iso_code": "NG-EK",
    "geo_zone": "South West",
    "latitude": 7.718935,
    "longitude": 5.311017,
    "area_sq_km": 6353
  },
  {
    "name": "Enugu",
    "capital": "Enugu",
    "slug": "enugu",
    "code": "EN",
    "iso_code": "NG-EN",
    "geo_zone": "South East",
    "latitude": 6.536353,
    "longitude": 7.435486,
    "area_sq_km": 7161
  },
  {
    "name": "Federal Capital Territory",
    "capital": "Abuja",
    "slug": "federal-capital-territory",
    "code": "FC",
    "iso_code": "NG-FC",
    "geo_zone": "North Central",
    "latitude": 8.893215,
    "longitude": 7.186307,
    "area_sq_km": 7315
  },
  {
    "name": "Gombe",
    "capital": "Gombe",
    "slug": "gombe",
    "code": "GO",
    "iso_code": "NG-GO",
    "geo_zone": "North East",
    "latitude": 10.363541,
    "longitude": 11.192584,
    "area_sq_km": 18768
  },
  {
    "name": "Imo",
    "capital": "Owerri",
    "slug": "imo",
    "code": "IM",
    "iso_code": "NG-IM",
    "geo_zone": "South East",
    "latitude": 5.572124,
    "longitude": 7.058880,
    "area_sq_km": 5530
  },
  {
    "name": "Jigawa",
    "capital": "Dutse",
    "slug": "jigawa",
    "code": "JI",
    "iso_code": "NG-JI",
    "geo_zone": "North West",
    "latitude": 12.228036,
    "longitude": 9.561515,
    "area_sq_km": 23154
  },
  {
    "name": "Kaduna",
    "capital": "Kaduna",
    "slug": "kaduna",
    "code": "KD",
    "iso_code": "NG-KD",
    "geo_zone": "North West",
    "latitude": 10.326040,
    "longitude": 7.726220,
    "area_sq_km": 46053
  },
  {
    "name": "Kano",
    "capital": "Kano",
    "slug": "kano",
    "code": "KN",
    "iso_code": "NG-KN",
    "geo_zone": "North West",
    "latitude": 11.746530,
    "longitude": 8.524720,
    "area_sq_km": 20131
  },
  {
    "name": "Katsina",
    "capital": "Katsina",
    "slug": "katsina",
    "code": "KT",
    "iso_code": "NG-KT",
    "geo_zone": "North West",
    "latitude": 12.256518,
    "longitude": 7.594620,
    "area_sq_km": 24192
  },
  {
    "name": "Kebbi",
    "capital": "Birnin Kebbi",
    "slug": "kebbi",
    "code": "KE",
    "iso_code": "NG-KE",
    "geo_zone": "North West",
    "latitude": 11.494172,
    "longitude": 4.233330,
    "area_sq_km": 36800
  },
  {
    "name": "Kogi",
    "capital": "Lokoja",
    "slug": "kogi",
    "code": "KO",
    "iso_code": "NG-KO",
    "geo_zone": "North Central",
    "latitude": 7.733711,
    "longitude": 6.690580,
    "area_sq_km": 29833
  },
  {
    "name": "Kwara",
    "capital": "Ilorin",
    "slug": "kwara",
    "code": "KW",
    "iso_code": "NG-KW",
    "geo_zone": "North Central",
    "latitude": 8.966667,
    "longitude": 4.386667,
    "area_sq_km": 36825
  },
  {
    "name": "Lagos",
    "capital": "Ikeja",
    "slug": "lagos",
    "code": "LA",
    "iso_code": "NG-LA",
    "geo_zone": "South West",
    "latitude": 6.524379,
    "longitude": 3.379206,
    "area_sq_km": 3577
  },
  {
    "name": "Nasarawa",
    "capital": "Lafia",
    "slug": "nasarawa",
    "code": "NA",
    "iso_code": "NG-NA",
    "geo_zone": "North Central",
    "latitude": 8.499914,
    "longitude": 8.199975,
    "area_sq_km": 27117
  },
  {
    "name": "Niger",
    "capital": "Minna",
    "slug": "niger",
    "code": "NI",
    "iso_code": "NG-NI",
    "geo_zone": "North Central",
    "latitude": 9.930153,
    "longitude": 5.598024,
    "area_sq_km": 76363
  },
  {
    "name": "Ogun",
    "capital": "Abeokuta",
    "slug": "ogun",
    "code": "OG",
    "iso_code": "NG-OG",
    "geo_zone": "South West",
    "latitude": 6.998150,
    "longitude": 3.473671,
    "area_sq_km": 16762
  },
  {
    "name": "Ondo",
    "capital": "Akure",
    "slug": "ondo",
    "code": "ON",
    "iso_code": "NG-ON",
    "geo_zone": "South West",
    "latitude": 6.914744,
    "longitude": 5.147977,
    "area_sq_km": 15500
  },
  {
    "name": "Osun",
    "capital": "Osogbo",
    "slug": "osun",
    "code": "OS",
    "iso_code": "NG-OS",
    "geo_zone": "South West",
    "latitude": 7.562942,
    "longitude": 4.519864,
    "area_sq_km": 9251
  },
  {
    "name": "Oyo",
    "capital": "Ibadan",
    "slug": "oyo",
    "code": "OY",
    "iso_code": "NG-OY",
    "geo_zone": "South West",
    "latitude": 8.157106,
    "longitude": 3.614950,
    "area_sq_km": 28454
  },
  {
    "name": "Plateau",
    "capital": "Jos",
    "slug": "plateau",
    "code": "PL",
    "iso_code": "NG-PL",
    "geo_zone": "North Central",
    "latitude": 9.217178,
    "longitude": 9.517341,
    "area_sq_km": 30913
  },
  {
    "name": "Rivers",
    "capital": "Port Harcourt",
    "slug": "rivers",
    "code": "RI",
    "iso_code": "NG-RI",
    "geo_zone": "South South",
    "latitude": 4.841565,
    "longitude": 6.870869,
    "area_sq_km": 11077
  },
  {
    "name": "Sokoto",
    "capital": "Sokoto",
    "slug": "sokoto",
    "code": "SO",
    "iso_code": "NG-SO",
    "geo_zone": "North West",
    "latitude": 13.053545,
    "longitude": 5.321430,
    "area_sq_km": 25973
  },
  {
    "name": "Taraba",
    "capital": "Jalingo",
    "slug": "taraba",
    "code": "TA",
    "iso_code": "NG-TA",
    "geo_zone": "North East",
    "latitude": 7.999424,
    "longitude": 10.773478,
    "area_sq_km": 54473
  },
  {
    "name": "Yobe",
    "capital": "Damaturu",
    "slug": "yobe",
    "code": "YO",
    "iso_code": "NG-YO",
    "geo_zone": "North East",
    "latitude": 12.294016,
    "longitude": 11.439085,
    "area_sq_km": 45502
  },
  {
    "name": "Zamfara",
    "capital": "Gusau",
    "slug": "zamfara",
    "code": "ZA",
    "iso_code": "NG-ZA",
    "geo_zone": "North West",
    "latitude": 12.162187,
    "longitude": 6.659690,
    "area_sq_km": 39762
  }
]
